{"type":"FeatureCollection","name":"AUS_ports","crs":{"type":"name","properties":{"name":"urn:ogc:def:crs:OGC:1.3:CRS84"}},"features":[{"type":"Feature","properties":{"scalerank":8,"featurecla":"Port","name":"Fremantle","website":"www.fremantleports.com.au","natlscale":5,"ne_id":1730087263},"geometry":{"type":"Point","coordinates":[115.7381037,-32.0475]}},{"type":"Feature","properties":{"scalerank":8,"featurecla":"Port","name":"Botany Bay","website":"www.sydneyports.com.au","natlscale":5,"ne_id":1730087265},"geometry":{"type":"Point","coordinates":[151.2095406,-33.97305556]}},{"type":"Feature","properties":{"scalerank":8,"featurecla":"Port","name":"Rockhampton","website":"www.gpcl.com.au","natlscale":5,"ne_id":1730087267},"geometry":{"type":"Point","coordinates":[151.2842167,-23.85111111]}},{"type":"Feature","properties":{"scalerank":7,"featurecla":"Port","name":"Coffs Harbour","website":null,"natlscale":10,"ne_id":1730087861},"geometry":{"type":"Point","coordinates":[153.1414605,-30.3075]}},{"type":"Feature","properties":{"scalerank":7,"featurecla":"Port","name":"Esperance","website":"www.esperanceport.com.au","natlscale":10,"ne_id":1730087863},"geometry":{"type":"Point","coordinates":[121.893404,-33.87194444]}},{"type":"Feature","properties":{"scalerank":7,"featurecla":"Port","name":"Port Augusta","website":null,"natlscale":10,"ne_id":1730087867},"geometry":{"type":"Point","coordinates":[137.7567138,-32.48861111]}},{"type":"Feature","properties":{"scalerank":7,"featurecla":"Port","name":"Bowen","website":null,"natlscale":10,"ne_id":1730087869},"geometry":{"type":"Point","coordinates":[148.25053,-20.02083333]}},{"type":"Feature","properties":{"scalerank":7,"featurecla":"Port","name":"Bundaberg","website":"www.portofbundaberg.com.au","natlscale":10,"ne_id":1730087871},"geometry":{"type":"Point","coordinates":[152.388457,-24.76722222]}},{"type":"Feature","properties":{"scalerank":7,"featurecla":"Port","name":"Burketown","website":"www.cairnsports.com.au","natlscale":10,"ne_id":1730087873},"geometry":{"type":"Point","coordinates":[139.737927,-17.55361111]}},{"type":"Feature","properties":{"scalerank":7,"featurecla":"Port","name":"Carnarvon","website":null,"natlscale":10,"ne_id":1730087875},"geometry":{"type":"Point","coordinates":[113.642874,-24.895]}},{"type":"Feature","properties":{"scalerank":7,"featurecla":"Port","name":"Cooktown","website":"www.cairnsports.com.au","natlscale":10,"ne_id":1730087877},"geometry":{"type":"Point","coordinates":[145.2437574,-15.45972222]}},{"type":"Feature","properties":{"scalerank":7,"featurecla":"Port","name":"Derby","website":null,"natlscale":10,"ne_id":1730087879},"geometry":{"type":"Point","coordinates":[123.6051237,-17.29222222]}},{"type":"Feature","properties":{"scalerank":7,"featurecla":"Port","name":"Eden","website":"www.eden.nsw.gov.au","natlscale":10,"ne_id":1730087881},"geometry":{"type":"Point","coordinates":[149.9053004,-37.07194444]}},{"type":"Feature","properties":{"scalerank":7,"featurecla":"Port","name":"George Town","website":null,"natlscale":10,"ne_id":1730087885},"geometry":{"type":"Point","coordinates":[146.8202002,-41.10972222]}},{"type":"Feature","properties":{"scalerank":7,"featurecla":"Port","name":"Geraldton","website":"www.gpa.wa.gov.au","natlscale":10,"ne_id":1730087887},"geometry":{"type":"Point","coordinates":[114.6007067,-28.77277778]}},{"type":"Feature","properties":{"scalerank":7,"featurecla":"Port","name":"Karumba","website":"www.cairnsports.com.au","natlscale":10,"ne_id":1730087889},"geometry":{"type":"Point","coordinates":[140.8333333,-17.48944444]}},{"type":"Feature","properties":{"scalerank":7,"featurecla":"Port","name":"Kingscote","website":null,"natlscale":10,"ne_id":1730087891},"geometry":{"type":"Point","coordinates":[137.6395171,-35.655]}},{"type":"Feature","properties":{"scalerank":7,"featurecla":"Port","name":"Maryborough","website":"www.nqbp.com.au","natlscale":10,"ne_id":1730087893},"geometry":{"type":"Point","coordinates":[152.9060071,-25.295]}},{"type":"Feature","properties":{"scalerank":7,"featurecla":"Port","name":"Strahan","website":"www.tasports.com.au","natlscale":10,"ne_id":1730087895},"geometry":{"type":"Point","coordinates":[145.3205536,-42.15833333]}},{"type":"Feature","properties":{"scalerank":6,"featurecla":"Port","name":"Mackay","website":"www.nqbp.com.au","natlscale":20,"ne_id":1730088519},"geometry":{"type":"Point","coordinates":[149.2237338,-21.10833333]}},{"type":"Feature","properties":{"scalerank":6,"featurecla":"Port","name":"Port Lincoln","website":"www.flindersports.com.au","natlscale":20,"ne_id":1730088521},"geometry":{"type":"Point","coordinates":[135.8694935,-34.71833333]}},{"type":"Feature","properties":{"scalerank":6,"featurecla":"Port","name":"Port Pirie","website":"www.flindersports.com.au","natlscale":20,"ne_id":1730088523},"geometry":{"type":"Point","coordinates":[138.0072438,-33.17694444]}},{"type":"Feature","properties":{"scalerank":6,"featurecla":"Port","name":"Albany","website":"www.albanyport.com.au","natlscale":20,"ne_id":1730088525},"geometry":{"type":"Point","coordinates":[117.8866902,-35.03166667]}},{"type":"Feature","properties":{"scalerank":6,"featurecla":"Port","name":"Barrow Island","website":null,"natlscale":20,"ne_id":1730088527},"geometry":{"type":"Point","coordinates":[115.4709069,-20.72583333]}},{"type":"Feature","properties":{"scalerank":6,"featurecla":"Port","name":"Bunbury","website":"www.byport.com.au","natlscale":20,"ne_id":1730088529},"geometry":{"type":"Point","coordinates":[115.6512367,-33.31527778]}},{"type":"Feature","properties":{"scalerank":6,"featurecla":"Port","name":"Burnie","website":"www.tasports.com.au","natlscale":20,"ne_id":1730088533},"geometry":{"type":"Point","coordinates":[145.9081272,-41.05277778]}},{"type":"Feature","properties":{"scalerank":6,"featurecla":"Port","name":"Geelong","website":"www.geelongport.com.au","natlscale":20,"ne_id":1730088535},"geometry":{"type":"Point","coordinates":[144.3873969,-38.12666667]}},{"type":"Feature","properties":{"scalerank":6,"featurecla":"Port","name":"Gladstone","website":"www.gpcl.com.au","natlscale":20,"ne_id":1730088537},"geometry":{"type":"Point","coordinates":[151.2517668,-23.83]}},{"type":"Feature","properties":{"scalerank":6,"featurecla":"Port","name":"Newcastle","website":"www.newportcorp.com.au","natlscale":20,"ne_id":1730088539},"geometry":{"type":"Point","coordinates":[151.7691402,-32.9075]}},{"type":"Feature","properties":{"scalerank":6,"featurecla":"Port","name":"Port Kembla","website":"www.kemblaport.com.au","natlscale":20,"ne_id":1730088541},"geometry":{"type":"Point","coordinates":[150.8935807,-34.4625]}},{"type":"Feature","properties":{"scalerank":6,"featurecla":"Port","name":"Portland","website":"www.portofportland.com.au","natlscale":20,"ne_id":1730088543},"geometry":{"type":"Point","coordinates":[141.609364,-38.34916667]}},{"type":"Feature","properties":{"scalerank":6,"featurecla":"Port","name":"Thursday Island","website":"www.cairnsports.com.au","natlscale":20,"ne_id":1730088545},"geometry":{"type":"Point","coordinates":[142.2189635,-10.58555556]}},{"type":"Feature","properties":{"scalerank":6,"featurecla":"Port","name":"Townsville","website":"www.townsville-port.com.au","natlscale":20,"ne_id":1730088547},"geometry":{"type":"Point","coordinates":[146.8247939,-19.25083333]}},{"type":"Feature","properties":{"scalerank":6,"featurecla":"Port","name":"Weipa","website":"www.nqbp.com.au","natlscale":20,"ne_id":1730088551},"geometry":{"type":"Point","coordinates":[141.8666667,-12.67]}},{"type":"Feature","properties":{"scalerank":6,"featurecla":"Port","name":"Whyalla","website":"www.onesteel.com","natlscale":20,"ne_id":1730088553},"geometry":{"type":"Point","coordinates":[137.5907538,-33.03833333]}},{"type":"Feature","properties":{"scalerank":6,"featurecla":"Port","name":"Wyndham","website":null,"natlscale":20,"ne_id":1730088555},"geometry":{"type":"Point","coordinates":[128.1008834,-15.45138889]}},{"type":"Feature","properties":{"scalerank":5,"featurecla":"Port","name":"Cairns","website":"www.cairnsport.com.au","natlscale":30,"ne_id":1730089029},"geometry":{"type":"Point","coordinates":[145.7755006,-16.92972222]}},{"type":"Feature","properties":{"scalerank":5,"featurecla":"Port","name":"Broome","website":"www.broomeport.com","natlscale":30,"ne_id":1730089031},"geometry":{"type":"Point","coordinates":[122.2091873,-18.0025]}},{"type":"Feature","properties":{"scalerank":5,"featurecla":"Port","name":"Devonport","website":"www.tasports.com.au","natlscale":30,"ne_id":1730089033},"geometry":{"type":"Point","coordinates":[146.3675501,-41.16777778]}},{"type":"Feature","properties":{"scalerank":5,"featurecla":"Port","name":"Hobart","website":"www.tasports.com.au","natlscale":30,"ne_id":1730089037},"geometry":{"type":"Point","coordinates":[147.3358068,-42.88027778]}},{"type":"Feature","properties":{"scalerank":4,"featurecla":"Port","name":"Adelaide","website":"www.flindersports.com.au","natlscale":50,"ne_id":1730089365},"geometry":{"type":"Point","coordinates":[138.5079505,-34.79916667]}},{"type":"Feature","properties":{"scalerank":4,"featurecla":"Port","name":"Brisbane","website":"www.portbris.com.au","natlscale":50,"ne_id":1730089367},"geometry":{"type":"Point","coordinates":[153.1684335,-27.3825]}},{"type":"Feature","properties":{"scalerank":4,"featurecla":"Port","name":"Port Hedland","website":"www.phpa.com.au","natlscale":50,"ne_id":1730089369},"geometry":{"type":"Point","coordinates":[118.5732038,-20.3175]}},{"type":"Feature","properties":{"scalerank":3,"featurecla":"Port","name":"Darwin","website":"www.darwinport.nt.gov.au","natlscale":75,"ne_id":1730089535},"geometry":{"type":"Point","coordinates":[130.854947,-12.47027778]}},{"type":"Feature","properties":{"scalerank":3,"featurecla":"Port","name":"Melbourne","website":"www.portofmelbourne.com","natlscale":75,"ne_id":1730089537},"geometry":{"type":"Point","coordinates":[144.9171967,-37.83277778]}},{"type":"Feature","properties":{"scalerank":3,"featurecla":"Port","name":"Perth","website":null,"natlscale":75,"ne_id":1730089541},"geometry":{"type":"Point","coordinates":[115.855477,-31.96527778]}},{"type":"Feature","properties":{"scalerank":3,"featurecla":"Port","name":"Sydney","website":"www.sydneyports.com.au","natlscale":75,"ne_id":1730089543},"geometry":{"type":"Point","coordinates":[151.1891637,-33.86222222]}}]}